[
    {
        "name": "বরিশাল (Barisal)",
        "location": {
            "latitude": "22.78038205",
            "longitude": "90.30618860167021"
        },
        "description": "",
        "phoneNumbers": [
            "01769072556",
            "01769072456"
        ]
    },
    {
        "name": "পটুয়াখালী (Patuakhali)",
        "location": {
            "latitude": "22.46457315",
            "longitude": "90.38812170767491"
        },
        "description": "",
        "phoneNumbers": [
            "01769073120",
            "01769073122"
        ]
    },
    {
        "name": "ঝালকাঠী (Jhalokathi)",
        "location": {
            "latitude": "22.660561350000002",
            "longitude": "90.1954498985531"
        },
        "description": "",
        "phoneNumbers": [
            "01769072108",
            "01769072122"
        ]
    },
    {
        "name": "পিরোজপুর (Pirojpur)",
        "location": {
            "latitude": "22.5785847",
            "longitude": "89.9692183"
        },
        "description": "",
        "phoneNumbers": [
            "01769078298",
            "01769078308"
        ]
    },
    {
        "name": "নোয়াখালী (Noakhali)",
        "location": {
            "latitude": "22.8741068",
            "longitude": "91.0967316"
        },
        "description": "",
        "phoneNumbers": [
            "01769331519",
            "01769331520"
        ]
    },
    {
        "name": "চাঁদপুর (Chadpur)",
        "location": {
            "latitude": "23.2309202",
            "longitude": "90.6430506"
        },
        "description": "",
        "phoneNumbers": [
            "01815440543",
            "01568734976"
        ]
    },
    {
        "name": "ফেনী (Feni)",
        "location": {
            "latitude": "23.011943",
            "longitude": "91.3574901"
        },
        "description": "",
        "phoneNumbers": [
            "01769335461",
            "01769335434"
        ]
    },
    {
        "name": "লক্ষীপুর (Lakshmipur)",
        "location": {
            "latitude": "22.8723926",
            "longitude": "90.4955673"
        },
        "description": "",
        "phoneNumbers": [
            "01721821096",
            "01708762110"
        ]
    },
    {
        "name": "কুমিল্লা (Cumilla)",
        "location": {
            "latitude": "23.4610615",
            "longitude": "91.1808748"
        },
        "description": "",
        "phoneNumbers": [
            "01334616159",
            "01334616160"
        ]
    },
    {
        "name": "ব্রাক্ষ্মণবাড়ীয়া (Brahmanbaria)",
        "location": {
            "latitude": "23.9916227",
            "longitude": "91.0618509"
        },
        "description": "",
        "phoneNumbers": [
            "01769322491",
            "01769332609"
        ]
    },
    {
        "name": "কক্সবাজার (Cox's Bazar)",
        "location": {
            "latitude": "21.4366517",
            "longitude": "91.951661"
        },
        "description": "কক্সবাজার এবং চট্টগ্রাম জেলার লোহাগড়া, পটিয়া, চন্দনাইশ, বাঁশখালী এবং সাতকানিয়া উপজেলা",
        "phoneNumbers": [
            "01769107231",
            "01769107232"
        ],
        "suburbs": [
            {
                "name": "কক্সবাজার (Cox's Bazar)",
                "latitude": "21.4366517",
                "longitude": "91.951661"
            },
            {
                "name": "লোহাগড়া (Lohagara)",
                "latitude": "23.2004846",
                "longitude": "89.4562014"
            },
            {
                "name": "পটিয়া (Patiya)",
                "latitude": "22.2890117",
                "longitude": "91.8730251"
            },
            {
                "name": "চন্দনাইশ (Chandanaish)",
                "latitude": "22.2220992",
                "longitude": "91.9671052"
            },
            {
                "name": "বাঁশখালী (Banshkhali)",
                "latitude": "22.0183019",
                "longitude": "91.7827784"
            },
            {
                "name": "সাতকানিয়া (Satkania)",
                "latitude": "22.1094136",
                "longitude": "91.9720398"
            }
        ]
    },
    {
        "name": "চট্টগ্রাম (Chattogram)",
        "location": {
            "latitude": "22.3600145",
            "longitude": "91.7656765"
        },
        "description": "চট্টগ্রাম (লোহাগড়া, পটিয়া, চন্দনাইশ, বাঁশখালী এবং সাতকানিয়া উপজেলা ব্যতিত)",
        "phoneNumbers": [
            "01769242012",
            "01769242014"
        ],
        "suburbs": [
            {
                "name": "পাহাড়তলী (Pahartali)",
                "latitude": "22.3600145",
                "longitude": "91.7656765"
            },
            {
                "name": "আগ্রাবাদ (Agrabad)",
                "latitude": "22.3237417",
                "longitude": "91.8083468"
            }
        ]
    },
    {
        "name": "মাদারীপুর (Madaripur)",
        "location": {
            "latitude": "23.1608156",
            "longitude": "90.1608578"
        },
        "description": "",
        "phoneNumbers": [
            "01769072102",
            "01769072103"
        ]
    },
    {
        "name": "কিশোরগঞ্জ (Kishoreganj)",
        "location": {
            "latitude": "24.4427153",
            "longitude": "90.7632118"
        },
        "description": "",
        "phoneNumbers": [
            "01769192382",
            "01769202366"
        ]
    },
    {
        "name": "টাঙ্গাইল (Tangail)",
        "location": {
            "latitude": "24.2738464",
            "longitude": "89.9377198"
        },
        "description": "",
        "phoneNumbers": [
            "01769212651",
            "01769210870"
        ]
    },
    {
        "name": "গোপালগঞ্জ (Gopalganj)",
        "location": {
            "latitude": "23.03408",
            "longitude": "89.8401059"
        },
        "description": "",
        "phoneNumbers": [
            "01769552436",
            "01769552448"
        ]
    },
    {
        "name": "রাজবাড়ী (Rajbari)",
        "location": {
            "latitude": "23.7206703",
            "longitude": "89.6222994"
        },
        "description": "",
        "phoneNumbers": [
            "01769552514",
            "01769552528"
        ]
    },
    {
        "name": "গাজীপুর (Gazipur)",
        "location": {
            "latitude": "23.991678049999997",
            "longitude": "90.3388475"
        },
        "description": "",
        "phoneNumbers": [
            "01785349842",
            "01769092106"
        ]
    },
    {
        "name": "মুন্সিগঞ্জ (Munsiganj)",
        "location": {
            "latitude": "23.5452292",
            "longitude": "90.4815476"
        },
        "description": "",
        "phoneNumbers": [
            "01769082798",
            "01769082784"
        ]
    },
    {
        "name": "মানিকগঞ্জ (Manikganj)",
        "location": {
            "latitude": "23.8706167",
            "longitude": "89.9986742"
        },
        "description": "",
        "phoneNumbers": [
            "01769092540",
            "01769092542"
        ]
    },
    {
        "name": "নারায়নগঞ্জ (Narayanganj)",
        "location": {
            "latitude": "23.63362015",
            "longitude": "90.49688227272468"
        },
        "description": "",
        "phoneNumbers": [
            "01732051858"
        ]
    },
    {
        "name": "নরিসিংদী (Narsingdi)",
        "location": {
            "latitude": "23.9308715",
            "longitude": "90.7159738"
        },
        "description": "",
        "phoneNumbers": [
            "01769082766",
            "01769082778"
        ]
    },
    {
        "name": "শরিয়তপুর (Sheriyatpur)",
        "location": {
            "latitude": "23.2132841",
            "longitude": "90.3481247"
        },
        "description": "",
        "phoneNumbers": [
            "01769097660",
            "01769097655"
        ]
    },
    {
        "name": "ফরিদপুর (Faridpur)",
        "location": {
            "latitude": "23.575581",
            "longitude": "89.8464641"
        },
        "description": "",
        "phoneNumbers": [
            "01769092102",
            "01742966162"
        ]
    },
    {
        "name": "ঢাকা লালবাগ-কাঁটাবন (Dhaka Lalbagh-Kataban)",
        "location": {
            "latitude": "23.7125059",
            "longitude": "90.3898274"
        },
        "description": "ঢাকার লালবাগ, ধানমন্ডি, মোহাম্মদপুর, শ্যামলী, আগারগাঁও, মহাখালী, তেজগাঁও, এ্যালিফেন্ট রোড এবং কাঁটাবন",
        "phoneNumbers": [
            "01769051838",
            "01769051839"
        ],
        "suburbs": [
            {
                "name": "লালবাগ (Lalbagh)",
                "latitude": "23.7125059",
                "longitude": "90.3898274"
            },
            {
                "name": "ধানমন্ডি (Dhanmandi)",
                "latitude": "23.7470303",
                "longitude": "90.3655623"
            },
            {
                "name": "মোহাম্মদপুর (Mohammadpur)",
                "latitude": "23.7645783",
                "longitude": "90.3494703"
            },
            {
                "name": "শ্যামলী (Shyamoli)",
                "latitude": "23.7722412",
                "longitude": "90.3585695"
            },
            {
                "name": "আগারগাঁও (Agargaon)",
                "latitude": "23.778914",
                "longitude": "90.3673607"
            },
            {
                "name": "মহাখালী (Mohakhali)",
                "latitude": "23.7788758",
                "longitude": "90.3944184"
            },
            {
                "name": "তেজগাঁও (Tejgaon)",
                "latitude": "23.7636967",
                "longitude": "90.3676006"
            },
            {
                "name": "এ্যালিফেন্ট রোড (Elephant Road)",
                "latitude": "23.7389952",
                "longitude": "90.3846288"
            },
            {
                "name": "কাঁটাবন (Kataban)",
                "latitude": "23.7356962",
                "longitude": "90.3845533"
            }
        ]
    },
    {
        "name": "ঢাকা গুলশান-বনশ্রী (Dhaka Gulshan-Banasree)",
        "location": {
            "latitude": "23.7901999",
            "longitude": "90.3897926"
        },
        "description": "ঢাকার গুলশান, বারিধারা, বনানী, বসুন্ধরা, বাড্ডা, রামপুরা, শাহজাহানপুর, উত্তরখান, দক্ষিণখান এবং বনশ্রী",
        "phoneNumbers": [
            "01769013102",
            "01769053154"
        ],
        "suburbs": [
            {
                "name": "গুলশান (Gulshan)",
                "latitude": "23.7901999",
                "longitude": "90.3897926"
            },
            {
                "name": "বারিধারা (Baridhara)",
                "latitude": "23.8019081",
                "longitude": "90.4111218"
            },
            {
                "name": "বনানী (Banani)",
                "latitude": "23.7947552",
                "longitude": "90.3954059"
            },
            {
                "name": "বসুন্ধরা (Basundhara)",
                "latitude": "23.8195428",
                "longitude": "90.4337558"
            },
            {
                "name": "বাড্ডা (Badda)",
                "latitude": "23.7862838",
                "longitude": "90.4089126"
            },
            {
                "name": "রামপুরা (Rampura)",
                "latitude": "23.7608342",
                "longitude": "90.4108686"
            },
            {
                "name": "শাহজাহানপুর (Shahjahanpur)",
                "latitude": "23.7427781",
                "longitude": "90.4137552"
            },
            {
                "name": "উত্তরখান (Uttor Khan)",
                "latitude": "23.8726105",
                "longitude": "90.4225599"
            },
            {
                "name": "দক্ষিণখান (Dakshin Khan)",
                "latitude": "23.8595413",
                "longitude": "90.4091546"
            },
            {
                "name": "বনশ্রী (Banasree)",
                "latitude": "23.7621319",
                "longitude": "90.4276446"
            }
        ]
    },
    {
        "name": "ঢাকা মিরপুর-উত্তরা (Dhaka Mirpur-Uttara)",
        "location": {
            "latitude": "23.8104644",
            "longitude": "90.3210809"
        },
        "description": "ঢাকার মিরপুর-১ হতে মিরপুর-১৪, খিলক্ষেত, উত্তরা এবং হযরত শাহজালাল আন্তর্জাতিক বিমান বন্দর",
        "phoneNumbers": [
            "01769024210",
            "01769024211"
        ],
        "suburbs": [
            {
                "name": "মিরপুর (Mirpur)",
                "latitude": "23.8104644",
                "longitude": "90.3210809"
            },
            {
                "name": "উত্তরা (Uttara)",
                "latitude": "23.8766322",
                "longitude": "90.3576884"
            },
            {
                "name": "খিলক্ষেত (Khilkhet)",
                "latitude": "23.8313208",
                "longitude": "90.4212535"
            },
            {
                "name": "হযরত শাহজালাল আন্তর্জাতিক বিমান বন্দর (Hazrat Shahjalal International Airport)",
                "latitude": "23.8397788",
                "longitude": "90.4074584"
            }
        ]
    },
    {
        "name": "ঢাকা মতিঝিল (Motijheel)",
        "location": {
            "latitude": "23.7354663",
            "longitude": "90.3977077"
        },
        "description": "",
        "phoneNumbers": [
            "01769092464"
        ]
    },
    {
        "name": "ঢাকা সেগুনবাগিচা-ইস্কাটন (Dhaka Segunbagicha-Iskaton)",
        "location": {
            "latitude": "23.7325976",
            "longitude": "90.4018113"
        },
        "description": "ঢাকার সেগুনবাগিচা, কাকরাইল, শান্তিনগর, ইস্কাটন",
        "phoneNumbers": [
            "01769095419"
        ],
        "suburbs": [
            {
                "name": "সেগুনবাগিচা (Segunbagicha)",
                "latitude": "23.7325976",
                "longitude": "90.4018113"
            },
            {
                "name": "কাকরাইল (Kakrail)",
                "latitude": "23.7382513",
                "longitude": "90.4044557"
            },
            {
                "name": "শান্তিনগর (Shantinagar)",
                "latitude": "23.7383107",
                "longitude": "90.4110348"
            },
            {
                "name": "ইস্কাটন (Iskaton)",
                "latitude": "23.7486808",
                "longitude": "90.396275"
            }
        ]
    },
    {
        "name": "ঢাকার রাজারবাগ - গুলিস্তান (Dhaka Rajarbag - Gulistan)",
        "location": {
            "latitude": "23.730447",
            "longitude": "90.4054964"
        },
        "description": "রাজারবাগ, পল্টন, গুলিস্তান",
        "phoneNumbers": [
            "01763939857"
        ],
        "suburbs": [
            {
                "name": "রাজারবাগ (Rajarbag)",
                "latitude": "23.7405682",
                "longitude": "90.4132036"
            },
            {
                "name": "পল্টন (Paltan)",
                "latitude": "23.730447",
                "longitude": "90.4054964"
            },
            {
                "name": "গুলিস্তান (Gulistan)",
                "latitude": "23.7221697",
                "longitude": "90.4021155"
            }
        ]
    },
    {
        "name": "পুরান ঢাকা (Old Dhaka)",
        "location": {
            "latitude": "23.7258859",
            "longitude": "90.3510316"
        },
        "description": "",
        "phoneNumbers": [
            "01769093266"
        ]
    },
    {
        "name": "ঢাকা বংশাল (Dhaka Bangshal)",
        "location": {
            "latitude": "23.717114",
            "longitude": "90.3927504"
        },
        "description": "",
        "phoneNumbers": [
            "01769093270"
        ]
    },
    {
        "name": "ঢাকা ডেমরা - যাত্রাবাড়ী (Dhaka Demra - Jatrabari)",
        "location": {
            "latitude": "23.7215122",
            "longitude": "90.4591939"
        },
        "description": "",
        "phoneNumbers": [
            "01769095204",
            "01769095205"
        ],
        "suburbs": [
            {
                "name": "ডেমরা (Demra)",
                "latitude": "23.7215122",
                "longitude": "90.4591939"
            },
            {
                "name": "যাত্রাবাড়ী (Jatrabari)",
                "latitude": "23.7215122",
                "longitude": "90.4591939"
            }
        ]
    },
    {
        "name": "শেরপুর (Sherpur)",
        "location": {
            "latitude": "25.0360647",
            "longitude": "90.0139029"
        },
        "description": "",
        "phoneNumbers": [
            "01769202516",
            "01769202524"
        ]
    },
    {
        "name": "নেত্রকোণা (Netrokona)",
        "location": {
            "latitude": "24.89156685",
            "longitude": "90.71253264209183"
        },
        "description": "",
        "phoneNumbers": [
            "01769202478",
            "01769202448"
        ]
    },
    {
        "name": "জামালপুর (Jamalpur)",
        "location": {
            "latitude": "24.90016675",
            "longitude": "89.98989331040148"
        },
        "description": "",
        "phoneNumbers": [
            "01769192545",
            "01769192550"
        ]
    },
    {
        "name": "ময়মনসিংহ (Mymensingh)",
        "location": {
            "latitude": "24.74611",
            "longitude": "90.40391029265447"
        },
        "description": "",
        "phoneNumbers": [
            "01769208151",
            "01769208165"
        ]
    },
    {
        "name": "বাগেরহাট (Bagerhat)",
        "location": {
            "latitude": "22.6600977",
            "longitude": "89.7859958"
        },
        "description": "",
        "phoneNumbers": [
            "01769072514",
            "01769072536"
        ]
    },
    {
        "name": "কুষ্টিয়া (Kushtia)",
        "location": {
            "latitude": "23.8987955",
            "longitude": "89.1295536"
        },
        "description": "",
        "phoneNumbers": [
            "01769552362",
            "01769552366"
        ]
    },
    {
        "name": "চায়াডাঙ্গা (Chuadanga)",
        "location": {
            "latitude": "23.6380381",
            "longitude": "88.8546283"
        },
        "description": "",
        "phoneNumbers": [
            "01769552380",
            "01769552382"
        ]
    },
    {
        "name": "মেহেরপুর (Meherpur)",
        "location": {
            "latitude": "23.77802545",
            "longitude": "88.63841832488058"
        },
        "description": "",
        "phoneNumbers": [
            "01769552398",
            "02479921153"
        ]
    },
    {
        "name": "নড়াইল (Narail)",
        "location": {
            "latitude": "23.17368665",
            "longitude": "89.50151812379154"
        },
        "description": "",
        "phoneNumbers": [
            "01769552456",
            "01769552457"
        ]
    },
    {
        "name": "মাগুরা (Magura)",
        "location": {
            "latitude": "23.4860159",
            "longitude": "89.4241349"
        },
        "description": "",
        "phoneNumbers": [
            "01769554505",
            "01769554506"
        ]
    },
    {
        "name": "ঝিনাইদহ (Jhenaidah)",
        "location": {
            "latitude": "23.56696655",
            "longitude": "89.17758169831568"
        },
        "description": "",
        "phoneNumbers": [
            "01769552158",
            "01769552172"
        ]
    },
    {
        "name": "যশোর (Jashore)",
        "location": {
            "latitude": "23.1288728",
            "longitude": "89.32820560898868"
        },
        "description": "",
        "phoneNumbers": [
            "01769552610",
            "01769009245"
        ]
    },
    {
        "name": "খুলনা (Khulna)",
        "location": {
            "latitude": "22.801444449999998",
            "longitude": "89.53423658653729"
        },
        "description": "",
        "phoneNumbers": [
            "01769552616",
            "01769552618"
        ]
    },
    {
        "name": "সাতক্ষীরা (Satkhira)",
        "location": {
            "latitude": "22.7282205",
            "longitude": "89.06465347275557"
        },
        "description": "",
        "phoneNumbers": [
            "01769552536",
            "01769552548"
        ]
    },
    {
        "name": "রাজশাহী (Rajshahi)",
        "location": {
            "latitude": "24.3742327",
            "longitude": "88.6097252"
        },
        "description": "",
        "phoneNumbers": [
            "01769112386",
            "01769112388"
        ]
    },
    {
        "name": "চাঁপাইনবাবগঞ্জ (Chapainawabganj)",
        "location": {
            "latitude": "24.6012789",
            "longitude": "88.24371010364078"
        },
        "description": "",
        "phoneNumbers": [
            "01769112070",
            "01769112372"
        ]
    },
    {
        "name": "পাবনা (Pabna)",
        "location": {
            "latitude": "24.0228488",
            "longitude": "89.29332401337003"
        },
        "description": "",
        "phoneNumbers": [
            "01769122478",
            "01769112480"
        ]
    },
    {
        "name": "সিরাজগঞ্জ (Sirajganj)",
        "location": {
            "latitude": "24.4499588",
            "longitude": "89.7053513"
        },
        "description": "",
        "phoneNumbers": [
            "01769122462",
            "01769122264"
        ]
    },
    {
        "name": "নাটোর (Natore)",
        "location": {
            "latitude": "24.4085999",
            "longitude": "88.9593545"
        },
        "description": "",
        "phoneNumbers": [
            "01769112446",
            "01769112448"
        ]
    },
    {
        "name": "নওগাঁ (Naogaon)",
        "location": {
            "latitude": "24.8357668",
            "longitude": "88.9124191"
        },
        "description": "",
        "phoneNumbers": [
            "01769122115",
            "01769122108"
        ]
    },
    {
        "name": "জয়পুরহাট (Joypurhat)",
        "location": {
            "latitude": "25.1114925",
            "longitude": "88.9884117"
        },
        "description": "",
        "phoneNumbers": [
            "01769112634"
        ]
    },
    {
        "name": "বগুড়া (Bogra)",
        "location": {
            "latitude": "24.85285555",
            "longitude": "89.38865918774391"
        },
        "description": "",
        "phoneNumbers": [
            "01769112594",
            "01769112170"
        ]
    },
    {
        "name": "রংপুর (Rangpur)",
        "location": {
            "latitude": "25.7284027",
            "longitude": "89.2640182"
        },
        "description": "",
        "phoneNumbers": [
            "01769662554",
            "01769662516"
        ]
    },
    {
        "name": "দিনাজপুর (Dinajpur)",
        "location": {
            "latitude": "25.6249608",
            "longitude": "88.632424"
        },
        "description": "",
        "phoneNumbers": [
            "02589921400",
            "02589682414"
        ]
    },
    {
        "name": "নীলফামারী (Nilphamari)",
        "location": {
            "latitude": "25.9490764",
            "longitude": "88.8358417"
        },
        "description": "",
        "phoneNumbers": [
            "01769682502",
            "01769682512"
        ]
    },
    {
        "name": "লালমনিরহাট (Lalmonirhat)",
        "location": {
            "latitude": "25.911583",
            "longitude": "89.4378013"
        },
        "description": "",
        "phoneNumbers": [
            "01769682366",
            "01769682362"
        ]
    },
    {
        "name": "কুড়িগ্রাম (Kurigram)",
        "location": {
            "latitude": "25.8130134",
            "longitude": "89.6430518"
        },
        "description": "",
        "phoneNumbers": [
            "01769662534",
            "01769662536"
        ]
    },
    {
        "name": "ঠাকুরগাঁও (Thakurgaon)",
        "location": {
            "latitude": "25.9728607",
            "longitude": "88.51366294129332"
        },
        "description": "",
        "phoneNumbers": [
            "01769666062",
            "01769672616"
        ]
    },
    {
        "name": "পঞ্চগড় (Panchagarh)",
        "location": {
            "latitude": "26.3308827",
            "longitude": "88.5460281"
        },
        "description": "",
        "phoneNumbers": [
            "01973000662",
            "01769662661"
        ]
    },
    {
        "name": "গাইবান্ধা (Gaibandha)",
        "location": {
            "latitude": "25.3323091",
            "longitude": "89.542466"
        },
        "description": "",
        "phoneNumbers": [
            "01610652525",
            "01754585486"
        ]
    },
    {
        "name": "সিলেট (Sylhet)",
        "location": {
            "latitude": "24.90202515",
            "longitude": "91.85357672746755"
        },
        "description": "",
        "phoneNumbers": [
            "01769177268",
            "01987833301"
        ]
    },
    {
        "name": "হবিগঞ্জ (Hobiganj)",
        "location": {
            "latitude": "24.3746027",
            "longitude": "91.41402723390942"
        },
        "description": "",
        "phoneNumbers": [
            "01769172596",
            "01769172616"
        ]
    },
    {
        "name": "সুনামগঞ্জ (Sunamganj)",
        "location": {
            "latitude": "25.0675424",
            "longitude": "91.3949422"
        },
        "description": "",
        "phoneNumbers": [
            "01769172420",
            "01769172430"
        ]
    },
    {
        "name": "মৌলভীবাজার (Moulvibazar)",
        "location": {
            "latitude": "24.5508121",
            "longitude": "91.7110348"
        },
        "description": "",
        "phoneNumbers": [
            "01769175680",
            "01769172400"
        ]
    }
]